[
    {
        "locationID": "LOC001",
        "latitude": 3.139003,
        "longitude": 101.693207,
        "addressLine1": "123 Main Street",
        "city": "City Center",
        "postcode": "50000"
    },
    {
        "locationID": "LOC002",
        "latitude": 3.140567,
        "longitude": 101.695012,
        "addressLine1": "45 Market Avenue",
        "city": "Downtown",
        "postcode": "50001"
    },
    {
        "locationID": "LOC003",
        "latitude": 1.557689,
        "longitude": 110.343903,
        "addressLine1": "789 Uptown Road",
        "city": "Uptown Kuching",
        "postcode": "93350"
    },
    {
        "locationID": "LOC004",
        "latitude": 1.4922,
        "longitude": 110.348,
        "addressLine1": "10 West Suburb Drive",
        "city": "West Suburbia",
        "postcode": "93250"
    },
    {
        "locationID": "LOC005",
        "latitude": 1.56789,
        "longitude": 110.400123,
        "addressLine1": "21 East Park Lane",
        "city": "East Suburbia",
        "postcode": "93300"
    },
    {
        "locationID": "LOC006",
        "latitude": 1.483895,
        "longitude": 110.332019,
        "addressLine1": "Kuching International Airport, Terminal 1",
        "city": "Kuching",
        "postcode": "93350"
    },
    {
        "locationID": "LOC007",
        "latitude": 1600.0,
        "longitude": 888.22,
        "addressLine1": "Kuching International Airport, Terminal 10",
        "city": "Kuching",
        "postcode": "12345"
    }
]